{
  "dismantlerProperties" : {
    "expiryDate" : "2024-02-19",
    "governmentAddress" : {
      "houseNumber" : "45",
      "zip" : "68161/12",
      "name" : "VLhpfQGTMDYpsBZxvfBoeygjb",
      "country" : "TK",
      "location" : "Mannheim",
      "street" : "Bernstraße"
    },
    "dismantlerAuditorContact" : {
      "fax" : "+ 086351053029 5484 385134 69803 150287 861886 7 29 82298656308847934216067403366 31218238",
      "phone" : "+ 749455  1831824061201 "
    },
    "receiverAuditorAddress" : {
      "houseNumber" : "45",
      "zip" : "68161/12",
      "name" : "UMaAIKKIkknjWEXJUfPxxQHeWKEJ",
      "country" : "ZY",
      "location" : "Mannheim",
      "street" : "Bernstraße"
    },
    "dismantlerContact" : {
      "fax" : "+5 652418526 39805661577737167  89472423086546366548242723501516332",
      "phone" : "112 003 773805056 294950441958014 95482233491329"
    },
    "dismantlerAuditorAddress" : {
      "houseNumber" : "45",
      "zip" : "68161/12",
      "name" : "dpHYZGhtgdntugzvvKAXLhM",
      "country" : "XG",
      "location" : "Mannheim",
      "street" : "Bernstraße"
    },
    "dismantlerAddress" : {
      "houseNumber" : "45",
      "zip" : "68161/12",
      "name" : "RYtGKbgicZaHCBRQDSx",
      "country" : "KQ",
      "location" : "Mannheim",
      "street" : "Bernstraße"
    },
    "issueDate" : "2024-02-19",
    "isVehicleWithdrawnFromService" : false
  },
  "serialNumber" : "LRP1087432",
  "companyNumber" : "S30A00065",
  "vehicleProperties" : {
    "licenseAbbreviation" : "HAL",
    "isVehicleInformationComplete" : false,
    "licensePlate" : "HAL-UI123",
    "identification" : "WBAAY711X0KC28153",
    "emptyWeight" : -179769313486231570000000000000000000000000000000000000000000000000000000000000000000000000000000000000000000000000000000000000000000000000000000000000000000000000000000000000000000000000000000000000000000000000000000000000000000000000000000000000000000000000000000000000000000000000000000000000000000000000000,
    "model" : "318 I",
    "brand" : "BMW",
    "class" : "01",
    "firstRegistration" : "19.12.2014"
  },
  "returnPointProperties" : {
    "expiryDate" : "2024-02-19",
    "receiverAddress" : {
      "houseNumber" : "45",
      "zip" : "68161/12",
      "name" : "JxkyvRnL",
      "country" : "JP",
      "location" : "Mannheim",
      "street" : "Bernstraße"
    },
    "receiverAuditorAddress" : {
      "houseNumber" : "45",
      "zip" : "68161/12",
      "name" : "yedUsFwdkelQbxeTeQOvaScfqIOOmaa",
      "country" : "ZF",
      "location" : "Mannheim",
      "street" : "Bernstraße"
    },
    "receiverAuditorContact" : {
      "fax" : "+80733042 228  48682148591250977228299 ",
      "phone" : "+50221351841 503347494582117793205781202 44357888695706371647944689  4 16967 982"
    },
    "receiverContact" : {
      "fax" : "81 7 8 04 6232416787 55 8 869746632128385304104 539 1588652",
      "phone" : "221 45901 4543 "
    },
    "issueDate" : "2024-02-19",
    "isVehicleWithdrawnFromService" : true
  },
  "vehicleOwnerProperties" : {
    "isVehicleOwnerInformationComplete" : true,
    "vehicleOwnerAddress" : {
      "houseNumber" : "45",
      "zip" : "68161/12",
      "name" : "eOMtThyhVNLWUZNRcBaQKxI",
      "country" : "NH",
      "location" : "Mannheim",
      "street" : "Bernstraße"
    },
    "citizenship" : "DE"
  },
  "dismantlingDate" : "2024-02-19"
}